[
    {  
        "name":"Heidi's Charging Station 1",
        "station_type": "Level-1",
        "plug_in_type": "J1772",
        "address": "15191 Dove Creek Rd",
        "city": "San Diego",
        "state": "CA",
        "zip": "92127",
        "latitude": 32.9876,
        "longitude": -117.0987,
        "owner_id": 1
    },
    {  
        "name":"Heidi's Charging Station 2",
        "station_type": "Level-2",
        "plug_in_type": "Tesla",
        "address": "3659 Richmond St",
        "city": "San Diego",
        "state": "CA",
        "zip": "92103",
        "latitude": 32.7447,
        "longitude": -117.1510,
        "owner_id": 1
    },
    {  
        "name":"Hannah's Charging Station",
        "station_type": "DC-FastCharging",
        "plug_in_type": "CCS",
        "address": "302 Horizon Dr",
        "city": "Encinitas",
        "state": "CA",
        "zip": "92024",
        "latitude": 33.0423,
        "longitude": -117.2569,
        "owner_id": 2
    },
    {  
        "name":"Triana's Charging Station",
        "station_type": "DC-FastCharging",
        "plug_in_type": "CHAdeMO",
        "address": "11326 Matinal Cir",
        "city": "San Diego",
        "state": "CA",
        "zip": "92127",
        "latitude": 33.0309,
        "longitude": -117.0845,
        "owner_id": 3
    },
    {  
        "name":"Fernando's Charging Station",
        "station_type": "DC-FastCharging",
        "plug_in_type": "Tesla",
        "address": "17904 Aguamiel Rd",
        "city": "San Diego",
        "state": "CA",
        "zip": "92127",
        "latitude": 33.0413,
        "longitude": -117.0812,
        "owner_id": 4
    }
]